[
  {
    "id": 1,
    "filename": "dambulla.jpg",
    "title": "Dambulla",
    "description": "A híres Dambulla barlangtemplom egy buddhista szentély Sri Lanka középső részén.",
    "coordinates": { "lat": 7.8566, "lng": 80.6498 }
  },
  {
    "id": 2,
    "filename": "pinnawala.jpg",
    "title": "Pinnawala",
    "description": "A Pinnawala elefántmenhely egy népszerű turisztikai látványosság, ahol elefántokat gondoznak.",
    "coordinates": { "lat": 7.3008, "lng": 80.3830 }
  },
  {
    "id": 3,
    "filename": "sigirya.jpg",
    "title": "Sigiriya",
    "description": "A Sigiriya oroszlánszikla egy UNESCO világörökségi helyszín, híres freskóiról és erődjéről.",
    "coordinates": { "lat": 7.9570, "lng": 80.7603 }
  },
  {
    "id": 4,
    "filename": "colombo.jpg",
    "title": "Colombo",
    "description": "Sri Lanka fővárosa, gazdag kulturális és történelmi örökséggel.",
    "coordinates": { "lat": 6.9271, "lng": 79.8612 }
  },
  {
    "id": 5,
    "filename": "galle.jpg",
    "title": "Galle",
    "description": "Galle történelmi erődje a holland gyarmati korszakból származik, UNESCO világörökség része.",
    "coordinates": { "lat": 6.0320, "lng": 80.2170 }
  },
  {
    "id": 6,
    "filename": "udawalawe.jpg",
    "title": "Udawalawe",
    "description": "Az Udawalawe Nemzeti Park híres vadon élő elefántjairól és madárvilágáról.",
    "coordinates": { "lat": 6.4759, "lng": 80.8910 }
  }
]